[
    {
        "placeId": "ChIJfWfS4ElYQhARF3tBl2SrhZQ",
        "name": "Prefab Ext",
        "latitude": 5.498702499999999,
        "longitude": 7.056405199999999,
        "address": "F3X4+FHM, Prefab Area, Owerri 460104, Imo, Nigeria"
    },
    {
        "placeId": "ChIJZ5D242NZQhARzuu0H8TyJjs",
        "name": "aladinma estate",
        "latitude": 5.4916873,
        "longitude": 7.038323099999999,
        "address": "F2RQ+M8G, Aladinma Rd, Owerri 460281, Imo, Nigeria"
    },
    {
        "placeId": "ChIJWwYxqUxYQhARBmuEJF-LrJk",
        "name": "Aladinns",
        "latitude": 5.493617,
        "longitude": 7.0502859,
        "address": "7 Olokoro St, Prefab Estate, Owerri 460104, Imo, Nigeria"
    },
    {
        "placeId": "ChIJiUrrHklYQhARwRLWcaU-lWk",
        "name": "Prefab Area",
        "latitude": 5.496335,
        "longitude": 7.063288999999999,
        "address": "Prefab Area, Ikenegbu, Owerri, Imo, Nigeria"
    },
    {
        "placeId": "ChIJ2RsG7zdYQhARd29eKS9evX0",
        "name": "De Ranch Hotels, Prefab Owerri",
        "latitude": 5.499751499999999,
        "longitude": 7.059721,
        "address": "Ikenegbu, Owerri 460104, Imo, Nigeria"
    },
    {
        "placeId": "ChIJN6v7RhhZQhARx3JQZW_q3qg",
        "name": "Diamond Special Schools Prefab Owwerri",
        "latitude": 5.4972726,
        "longitude": 7.0560059,
        "address": "F3W4+W9Q, Jeff Oguzie St, Ikenegbu, Owerri 460104, Imo, Nigeria"
    },
    {
        "placeId": "ChIJ5bx04UtYQhARLHiOGiRQLuI",
        "name": "St. Andrews Anglican Church Aladinma",
        "latitude": 5.4952888,
        "longitude": 7.0551116,
        "address": "7 St Andrew's St, Prefab, Owerri 460104, Imo, Nigeria"
    },
    {
        "placeId": "ChIJQeGS4ylZQhARam-qXVdQlxg",
        "name": "FAPRIM GLOBAL ENTERPRISE LIMITED",
        "latitude": 5.4950242,
        "longitude": 7.0550872,
        "address": "6 Tony Okeke Street, PREFAB, Owerri 460232, Imo, Nigeria"
    },
    {
        "placeId": "ChIJBwTLaEtYQhARTN1thZ956RA",
        "name": "Silver Stone Hotel",
        "latitude": 5.494600699999999,
        "longitude": 7.051533500000001,
        "address": "Prefab, 9 Ovim St, Prefab Area, Owerri 460104, Imo, Nigeria"
    },
    {
        "placeId": "ChIJL8UoU7tZQhARW5DWUrfULIQ",
        "name": "Fynalmix Recording Studios",
        "latitude": 5.4950611,
        "longitude": 7.055241,
        "address": "6 Tony Okeke Street, Prefab, Owerri 460104, Imo, Nigeria"
    },
    {
        "placeId": "ChIJe4PNE3NZQhAR4PXmWlY5fGU",
        "name": "Rhema integrated services",
        "latitude": 5.489089799999999,
        "longitude": 7.017682,
        "address": "No 4 fuason Avenue, prefab, Owerri 460281, Imo, Nigeria"
    },
    {
        "placeId": "ChIJH1UV2XBZQhARsYtO8B3jbSk",
        "name": "TheWilsons",
        "latitude": 5.499708500000001,
        "longitude": 7.0578734,
        "address": "No. 8 St. Andrew's street Prefab Aladinma Owerri, Owerri 460232, Nigeria"
    }
]